$GPRMC,094915.000,A,3414.9093,N,10900.0406,E,0.00,0.00,210512,,,A*60
$GPVTG,0.00,T,,M,0.00,N,0.00,K,A*3D
$GPGGA,094916.000,3414.9093,N,10900.0406,E,1,5,1.54,188.4,M,-28.3,M,,*70
$GPRMC,094916.000,A,3414.9093,N,10900.0406,E,0.00,0.00,210512,,,A*63
$GPVTG,0.00,T,,M,0.00,N,0.00,K,A*3D
$GPGGA,094917.000,3414.9093,N,10900.0406,E,1,5,1.54,188.4,M,-28.3,M,,*71
$GPRMC,094917.000,A,3414.9093,N,10900.0406,E,0.00,0.00,210512,,,A*62
$GPVTG,0.00,T,,M,0.00,N,0.00,K,A*3D
$GPGGA,094918.000,3414.9093,N,10900.0406,E,1,5,1.54,188.4,M,-28.3,M,,*7E
$GPRMC,094918.000,A,3414.9093,N,10900.0406,E,0.00,0.00,210512,,,A*6D
$GPVTG,0.00,T,,M,0.00,N,0.00,K,A*3D
$GPGGA,094919.000,3414.9093,N,10900.0406,E,1,5,1.54,188.4,M,-28.3,M,,*7F
$GPRMC,094919.000,A,3414.9093,N,10900.0406,E,0.00,0.00,210512,,,A*6C
$GPVTG,0.00,T,,M,0.00,N,0.00,K,A*3D
$GPGGA,094920.000,3414.9093,N,10900.0406,E,1,5,1.54,188.4,M,-28.3,M,,*75
$GPGSA,A,3,19,13,23,07,06,,,,,,,,1.83,1.54,0.98*03
$GPGSV,2,1,08,19,72,183,40,13,51,260,41,06,49,048,23,07,41,319,39*73
$GPGSV,2,2,08,23,40,213,40,42,38,132,,08,05,311,,01,01,179,*7C
$GPRMC,094920.000,A,3414.9093,N,10900.0406,E,0.00,0.00,210512,,,A*66
$GPVTG,0.00,T,,M,0.00,N,0.00,K,A*3D
$GPGGA,094921.000,3414.9093,N,10900.0406,E,1,5,1.54,188.4,M,-28.3,M,,*74
$GPRMC,094921.000,A,3414.9093,N,10900.0406,E,0.00,0.00,210512,,,A*67
$GPVTG,0.00,T,,M,0.00,N,0.00,K,A*3D
$GPGSV,3,2,11,09,40,086,48,21,40,180,20,05,26,077,44,07,20,297,*73
$GPGSV,3,3,11,29,18,041,,20,03,283,,08,02,031,40*4A
$GPRMC,013018.000,A,3414.9390,N,10859.9880,E,0.21,257.04,280313,,,A*64
$GPGGA,013019.000,3414.9389,N,10859.9877,E,1,04,3.0,387.1,M,-28.3,M,,0000*75
$GPGSA,A,3,09,26,05,15,,,,,,,,,3.2,3.0,1.0*3D
$GPRMC,013019.000,A,3414.9389,N,10859.9877,E,0.25,256.46,280313,,,A*66
$GPGGA,013020.000,3414.9388,N,10859.9875,E,1,04,3.0,386.6,M,-28.3,M,,0000*7A
$GPGSA,A,3,09,26,05,15,,,,,,,,,3.2,3.0,1.0*3D
$GPRMC,013020.000,A,3414.9388,N,10859.9875,E,0.25,256.08,280313,,,A*65
$GPGGA,013021.000,3414.9387,N,10859.9872,E,1,04,3.0,386.2,M,-28.3,M,,0000*77
$GPGSA,A,3,09,26,05,15,,,,,,,,,3.2,3.0,1.0*3D
$GPRMC,013021.000,A,3414.9387,N,10859.9872,E,0.24,258.00,280313,,,A*6B
$GPGGA,013022.000,3414.9386,N,10859.9869,E,1,04,3.0,385.8,M,-28.3,M,,0000*76
$GPGSA,A,3,09,26,05,15,,,,,,,,,3.2,3.0,1.0*3D
$GPRMC,013022.000,A,3414.9386,N,10859.9869,E,0.24,256.45,280313,,,A*6C
$GPGGA,013023.000,3414.9385,N,10859.9867,E,1,04,3.0,385.4,M,-28.3,M,,0000*76
$GPGSA,A,3,09,26,05,15,,,,,,,,,3.2,3.0,1.0*3D
$GPGSV,3,1,11,24,85,122,,04,83,299,24,15,82,008,34,26,40,041,45*7F
$GPGSV,3,2,11,09,40,086,47,21,40,180,,05,26,077,44,07,20,297,*7E
$GPGSV,3,3,11,29,18,041,,20,03,283,,08,02,031,40*4A
$GPRMC,013023.000,A,3414.9385,N,10859.9867,E,0.21,263.96,280313,,,A*6D
$GPGGA,013024.000,3414.9384,N,10859.9864,E,1,04,3.0,385.0,M,-28.3,M,,0000*77
$GPGSA,A,3,09,26,05,15,,,,,,,,,3.2,3.0,1.0*3D
$GPRMC,013024.000,A,3414.9384,N,10859.9864,E,0.23,252.58,280313,,,A*6A
$GPGGA,013025.000,3414.9384,N,10859.9862,E,1,04,3.0,384.7,M,-28.3,M,,0000*76
$GPGSA,A,3,09,26,05,15,,,,,,,,,3.2,3.0,1.0*3D
$GPRMC,013025.000,A,3414.9384,N,10859.9862,E,0.23,263.39,280313,,,A*68
$GPGGA,013026.000,3414.9383,N,10859.9860,E,1,04,3.0,384.3,M,-28.3,M,,0000*74
$GPGSA,A,3,09,26,05,15,,,,,,,,,3.2,3.0,1.0*3D
$GPRMC,013026.000,A,3414.9383,N,10859.9860,E,0.21,254.13,280313,,,A*60
$GPGGA,013027.000,3414.9382,N,10859.9858,E,1,04,3.0,384.0,M,-28.3,M,,0000*7C
$GPGSA,A,3,09,26,05,15,,,,,,,,,3.2,3.0,1.0*3D
$GPRMC,013027.000,A,3414.9382,N,10859.9858,E,0.21,261.13,280313,,,A*6D
$GPGGA,013028.000,3414.9382,N,10859.9856,E,1,04,3.0,383.7,M,-28.3,M,,0000*7D
$GPGSA,A,3,09,26,05,15,,,,,,,,,3.2,3.0,1.0*3D
$GPGGA,000009.059,,,,,0,00,,,M,0.0,M,,0000*53                                
$GPGSA,A,1,,,,,,,,,,,,,,,*1E           
$GPRMC,094915.000,A,3414.9093,N,10900.0406,E,0.00,0.00,210512,,,A*60
$GPVTG,0.00,T,,M,0.00,N,0.00,K,A*3D
$GPGGA,094916.000,3414.9093,N,10900.0406,E,1,5,1.54,188.4,M,-28.3,M,,*70
$GPRMC,094916.000,A,3414.9093,N,10900.0406,E,0.00,0.00,210512,,,A*63
$GPVTG,0.00,T,,M,0.00,N,0.00,K,A*3D
$GPGGA,094917.000,3414.9093,N,10900.0406,E,1,5,1.54,188.4,M,-28.3,M,,*71
$GPRMC,094917.000,A,3414.9093,N,10900.0406,E,0.00,0.00,210512,,,A*62
$GPVTG,0.00,T,,M,0.00,N,0.00,K,A*3D
$GPGGA,094918.000,3414.9093,N,10900.0406,E,1,5,1.54,188.4,M,-28.3,M,,*7E
$GPRMC,094918.000,A,3414.9093,N,10900.0406,E,0.00,0.00,210512,,,A*6D
$GPVTG,0.00,T,,M,0.00,N,0.00,K,A*3D
$GPGGA,094919.000,3414.9093,N,10900.0406,E,1,5,1.54,188.4,M,-28.3,M,,*7F
$GPRMC,094919.000,A,3414.9093,N,10900.0406,E,0.00,0.00,210512,,,A*6C
$GPVTG,0.00,T,,M,0.00,N,0.00,K,A*3D
$GPGGA,094920.000,3414.9093,N,10900.0406,E,1,5,1.54,188.4,M,-28.3,M,,*75
$GPGSA,A,3,19,13,23,07,06,,,,,,,,1.83,1.54,0.98*03
$GPGSV,2,1,08,19,72,183,40,13,51,260,41,06,49,048,23,07,41,319,39*73
$GPGSV,2,2,08,23,40,213,40,42,38,132,,08,05,311,,01,01,179,*7C
$GPRMC,094920.000,A,3414.9093,N,10900.0406,E,0.00,0.00,210512,,,A*66
$GPVTG,0.00,T,,M,0.00,N,0.00,K,A*3D
$GPGGA,094921.000,3414.9093,N,10900.0406,E,1,5,1.54,188.4,M,-28.3,M,,*74
$GPRMC,094921.000,A,3414.9093,N,10900.0406,E,0.00,0.00,210512,,,A*67
$GPVTG,0.00,T,,M,0.00,N,0.00,K,A*3D
$GPGSV,3,2,11,09,40,086,48,21,40,180,20,05,26,077,44,07,20,297,*73
$GPGSV,3,3,11,29,18,041,,20,03,283,,08,02,031,40*4A
$GPRMC,013018.000,A,3414.9390,N,10859.9880,E,0.21,257.04,280313,,,A*64
$GPGGA,013019.000,3414.9389,N,10859.9877,E,1,04,3.0,387.1,M,-28.3,M,,0000*75
$GPGSA,A,3,09,26,05,15,,,,,,,,,3.2,3.0,1.0*3D
$GPRMC,013019.000,A,3414.9389,N,10859.9877,E,0.25,256.46,280313,,,A*66
$GPGGA,013020.000,3414.9388,N,10859.9875,E,1,04,3.0,386.6,M,-28.3,M,,0000*7A
$GPGSA,A,3,09,26,05,15,,,,,,,,,3.2,3.0,1.0*3D
$GPRMC,013020.000,A,3414.9388,N,10859.9875,E,0.25,256.08,280313,,,A*65
$GPGGA,013021.000,3414.9387,N,10859.9872,E,1,04,3.0,386.2,M,-28.3,M,,0000*77
$GPGSA,A,3,09,26,05,15,,,,,,,,,3.2,3.0,1.0*3D
$GPRMC,013021.000,A,3414.9387,N,10859.9872,E,0.24,258.00,280313,,,A*6B
$GPGGA,013022.000,3414.9386,N,10859.9869,E,1,04,3.0,385.8,M,-28.3,M,,0000*76
$GPGSA,A,3,09,26,05,15,,,,,,,,,3.2,3.0,1.0*3D
$GPRMC,013022.000,A,3414.9386,N,10859.9869,E,0.24,256.45,280313,,,A*6C
$GPGGA,013023.000,3414.9385,N,10859.9867,E,1,04,3.0,385.4,M,-28.3,M,,0000*76
$GPGSA,A,3,09,26,05,15,,,,,,,,,3.2,3.0,1.0*3D
$GPGSV,3,1,11,24,85,122,,04,83,299,24,15,82,008,34,26,40,041,45*7F
$GPGSV,3,2,11,09,40,086,47,21,40,180,,05,26,077,44,07,20,297,*7E
$GPGSV,3,3,11,29,18,041,,20,03,283,,08,02,031,40*4A
$GPRMC,013023.000,A,3414.9385,N,10859.9867,E,0.21,263.96,280313,,,A*6D
$GPGGA,013024.000,3414.9384,N,10859.9864,E,1,04,3.0,385.0,M,-28.3,M,,0000*77
$GPGSA,A,3,09,26,05,15,,,,,,,,,3.2,3.0,1.0*3D
$GPRMC,013024.000,A,3414.9384,N,10859.9864,E,0.23,252.58,280313,,,A*6A
$GPGGA,013025.000,3414.9384,N,10859.9862,E,1,04,3.0,384.7,M,-28.3,M,,0000*76
$GPGSA,A,3,09,26,05,15,,,,,,,,,3.2,3.0,1.0*3D
$GPRMC,013025.000,A,3414.9384,N,10859.9862,E,0.23,263.39,280313,,,A*68
$GPGGA,013026.000,3414.9383,N,10859.9860,E,1,04,3.0,384.3,M,-28.3,M,,0000*74
$GPGSA,A,3,09,26,05,15,,,,,,,,,3.2,3.0,1.0*3D
$GPRMC,013026.000,A,3414.9383,N,10859.9860,E,0.21,254.13,280313,,,A*60
$GPGGA,013027.000,3414.9382,N,10859.9858,E,1,04,3.0,384.0,M,-28.3,M,,0000*7C
$GPGSA,A,3,09,26,05,15,,,,,,,,,3.2,3.0,1.0*3D
$GPRMC,013027.000,A,3414.9382,N,10859.9858,E,0.21,261.13,280313,,,A*6D
$GPGGA,013028.000,3414.9382,N,10859.9856,E,1,04,3.0,383.7,M,-28.3,M,,0000*7D
$GPGSA,A,3,09,26,05,15,,,,,,,,,3.2,3.0,1.0*3D
$GPGGA,000009.059,,,,,0,00,,,M,0.0,M,,0000*53                                
$GPGSA,A,1,,,,,,,,,,,,,,,*1E                                     
$GPRMC,094915.000,A,3414.9093,N,10900.0406,E,0.00,0.00,210512,,,A*60
$GPVTG,0.00,T,,M,0.00,N,0.00,K,A*3D
$GPGGA,094916.000,3414.9093,N,10900.0406,E,1,5,1.54,188.4,M,-28.3,M,,*70
$GPRMC,094916.000,A,3414.9093,N,10900.0406,E,0.00,0.00,210512,,,A*63
$GPVTG,0.00,T,,M,0.00,N,0.00,K,A*3D
$GPGGA,094917.000,3414.9093,N,10900.0406,E,1,5,1.54,188.4,M,-28.3,M,,*71
$GPRMC,094917.000,A,3414.9093,N,10900.0406,E,0.00,0.00,210512,,,A*62
$GPVTG,0.00,T,,M,0.00,N,0.00,K,A*3D
$GPGGA,094918.000,3414.9093,N,10900.0406,E,1,5,1.54,188.4,M,-28.3,M,,*7E
$GPRMC,094918.000,A,3414.9093,N,10900.0406,E,0.00,0.00,210512,,,A*6D
$GPVTG,0.00,T,,M,0.00,N,0.00,K,A*3D
$GPGGA,094919.000,3414.9093,N,10900.0406,E,1,5,1.54,188.4,M,-28.3,M,,*7F
$GPRMC,094919.000,A,3414.9093,N,10900.0406,E,0.00,0.00,210512,,,A*6C
$GPVTG,0.00,T,,M,0.00,N,0.00,K,A*3D
$GPGGA,094920.000,3414.9093,N,10900.0406,E,1,5,1.54,188.4,M,-28.3,M,,*75
$GPGSA,A,3,19,13,23,07,06,,,,,,,,1.83,1.54,0.98*03
$GPGSV,2,1,08,19,72,183,40,13,51,260,41,06,49,048,23,07,41,319,39*73
$GPGSV,2,2,08,23,40,213,40,42,38,132,,08,05,311,,01,01,179,*7C
$GPRMC,094920.000,A,3414.9093,N,10900.0406,E,0.00,0.00,210512,,,A*66
$GPVTG,0.00,T,,M,0.00,N,0.00,K,A*3D
$GPGGA,094921.000,3414.9093,N,10900.0406,E,1,5,1.54,188.4,M,-28.3,M,,*74
$GPRMC,094921.000,A,3414.9093,N,10900.0406,E,0.00,0.00,210512,,,A*67
$GPVTG,0.00,T,,M,0.00,N,0.00,K,A*3D
$GPGSV,3,2,11,09,40,086,48,21,40,180,20,05,26,077,44,07,20,297,*73
$GPGSV,3,3,11,29,18,041,,20,03,283,,08,02,031,40*4A
$GPRMC,013018.000,A,3414.9390,N,10859.9880,E,0.21,257.04,280313,,,A*64
$GPGGA,013019.000,3414.9389,N,10859.9877,E,1,04,3.0,387.1,M,-28.3,M,,0000*75
$GPGSA,A,3,09,26,05,15,,,,,,,,,3.2,3.0,1.0*3D
$GPRMC,013019.000,A,3414.9389,N,10859.9877,E,0.25,256.46,280313,,,A*66
$GPGGA,013020.000,3414.9388,N,10859.9875,E,1,04,3.0,386.6,M,-28.3,M,,0000*7A
$GPGSA,A,3,09,26,05,15,,,,,,,,,3.2,3.0,1.0*3D
$GPRMC,013020.000,A,3414.9388,N,10859.9875,E,0.25,256.08,280313,,,A*65
$GPGGA,013021.000,3414.9387,N,10859.9872,E,1,04,3.0,386.2,M,-28.3,M,,0000*77
$GPGSA,A,3,09,26,05,15,,,,,,,,,3.2,3.0,1.0*3D
$GPRMC,013021.000,A,3414.9387,N,10859.9872,E,0.24,258.00,280313,,,A*6B
$GPGGA,013022.000,3414.9386,N,10859.9869,E,1,04,3.0,385.8,M,-28.3,M,,0000*76
$GPGSA,A,3,09,26,05,15,,,,,,,,,3.2,3.0,1.0*3D
$GPRMC,013022.000,A,3414.9386,N,10859.9869,E,0.24,256.45,280313,,,A*6C
$GPGGA,013023.000,3414.9385,N,10859.9867,E,1,04,3.0,385.4,M,-28.3,M,,0000*76
$GPGSA,A,3,09,26,05,15,,,,,,,,,3.2,3.0,1.0*3D
$GPGSV,3,1,11,24,85,122,,04,83,299,24,15,82,008,34,26,40,041,45*7F
$GPGSV,3,2,11,09,40,086,47,21,40,180,,05,26,077,44,07,20,297,*7E
$GPGSV,3,3,11,29,18,041,,20,03,283,,08,02,031,40*4A
$GPRMC,013023.000,A,3414.9385,N,10859.9867,E,0.21,263.96,280313,,,A*6D
$GPGGA,013024.000,3414.9384,N,10859.9864,E,1,04,3.0,385.0,M,-28.3,M,,0000*77
$GPGSA,A,3,09,26,05,15,,,,,,,,,3.2,3.0,1.0*3D
$GPRMC,013024.000,A,3414.9384,N,10859.9864,E,0.23,252.58,280313,,,A*6A
$GPGGA,013025.000,3414.9384,N,10859.9862,E,1,04,3.0,384.7,M,-28.3,M,,0000*76
$GPGSA,A,3,09,26,05,15,,,,,,,,,3.2,3.0,1.0*3D
$GPRMC,013025.000,A,3414.9384,N,10859.9862,E,0.23,263.39,280313,,,A*68
$GPGGA,013026.000,3414.9383,N,10859.9860,E,1,04,3.0,384.3,M,-28.3,M,,0000*74
$GPGSA,A,3,09,26,05,15,,,,,,,,,3.2,3.0,1.0*3D
$GPRMC,013026.000,A,3414.9383,N,10859.9860,E,0.21,254.13,280313,,,A*60
$GPGGA,013027.000,3414.9382,N,10859.9858,E,1,04,3.0,384.0,M,-28.3,M,,0000*7C
$GPGSA,A,3,09,26,05,15,,,,,,,,,3.2,3.0,1.0*3D
$GPRMC,013027.000,A,3414.9382,N,10859.9858,E,0.21,261.13,280313,,,A*6D
$GPGGA,013028.000,3414.9382,N,10859.9856,E,1,04,3.0,383.7,M,-28.3,M,,0000*7D
$GPGSA,A,3,09,26,05,15,,,,,,,,,3.2,3.0,1.0*3D
$GPGGA,000009.059,,,,,0,00,,,M,0.0,M,,0000*53                                
$GPGSA,A,1,,,,,,,,,,,,,,,*1E                                     
$GPRMC,094915.000,A,3414.9093,N,10900.0406,E,0.00,0.00,210512,,,A*60
$GPVTG,0.00,T,,M,0.00,N,0.00,K,A*3D
$GPGGA,094916.000,3414.9093,N,10900.0406,E,1,5,1.54,188.4,M,-28.3,M,,*70
$GPRMC,094916.000,A,3414.9093,N,10900.0406,E,0.00,0.00,210512,,,A*63
$GPVTG,0.00,T,,M,0.00,N,0.00,K,A*3D
$GPGGA,094917.000,3414.9093,N,10900.0406,E,1,5,1.54,188.4,M,-28.3,M,,*71
$GPRMC,094917.000,A,3414.9093,N,10900.0406,E,0.00,0.00,210512,,,A*62
$GPVTG,0.00,T,,M,0.00,N,0.00,K,A*3D
$GPGGA,094918.000,3414.9093,N,10900.0406,E,1,5,1.54,188.4,M,-28.3,M,,*7E
$GPRMC,094918.000,A,3414.9093,N,10900.0406,E,0.00,0.00,210512,,,A*6D
$GPVTG,0.00,T,,M,0.00,N,0.00,K,A*3D
$GPGGA,094919.000,3414.9093,N,10900.0406,E,1,5,1.54,188.4,M,-28.3,M,,*7F
$GPRMC,094919.000,A,3414.9093,N,10900.0406,E,0.00,0.00,210512,,,A*6C
$GPVTG,0.00,T,,M,0.00,N,0.00,K,A*3D
$GPGGA,094920.000,3414.9093,N,10900.0406,E,1,5,1.54,188.4,M,-28.3,M,,*75
$GPGSA,A,3,19,13,23,07,06,,,,,,,,1.83,1.54,0.98*03
$GPGSV,2,1,08,19,72,183,40,13,51,260,41,06,49,048,23,07,41,319,39*73
$GPGSV,2,2,08,23,40,213,40,42,38,132,,08,05,311,,01,01,179,*7C
$GPRMC,094920.000,A,3414.9093,N,10900.0406,E,0.00,0.00,210512,,,A*66
$GPVTG,0.00,T,,M,0.00,N,0.00,K,A*3D
$GPGGA,094921.000,3414.9093,N,10900.0406,E,1,5,1.54,188.4,M,-28.3,M,,*74
$GPRMC,094921.000,A,3414.9093,N,10900.0406,E,0.00,0.00,210512,,,A*67
$GPVTG,0.00,T,,M,0.00,N,0.00,K,A*3D
$GPGSV,3,2,11,09,40,086,48,21,40,180,20,05,26,077,44,07,20,297,*73
$GPGSV,3,3,11,29,18,041,,20,03,283,,08,02,031,40*4A
$GPRMC,013018.000,A,3414.9390,N,10859.9880,E,0.21,257.04,280313,,,A*64
$GPGGA,013019.000,3414.9389,N,10859.9877,E,1,04,3.0,387.1,M,-28.3,M,,0000*75
$GPGSA,A,3,09,26,05,15,,,,,,,,,3.2,3.0,1.0*3D
$GPRMC,013019.000,A,3414.9389,N,10859.9877,E,0.25,256.46,280313,,,A*66
$GPGGA,013020.000,3414.9388,N,10859.9875,E,1,04,3.0,386.6,M,-28.3,M,,0000*7A
$GPGSA,A,3,09,26,05,15,,,,,,,,,3.2,3.0,1.0*3D
$GPRMC,013020.000,A,3414.9388,N,10859.9875,E,0.25,256.08,280313,,,A*65
$GPGGA,013021.000,3414.9387,N,10859.9872,E,1,04,3.0,386.2,M,-28.3,M,,0000*77
$GPGSA,A,3,09,26,05,15,,,,,,,,,3.2,3.0,1.0*3D
$GPRMC,013021.000,A,3414.9387,N,10859.9872,E,0.24,258.00,280313,,,A*6B
$GPGGA,013022.000,3414.9386,N,10859.9869,E,1,04,3.0,385.8,M,-28.3,M,,0000*76
$GPGSA,A,3,09,26,05,15,,,,,,,,,3.2,3.0,1.0*3D
$GPRMC,013022.000,A,3414.9386,N,10859.9869,E,0.24,256.45,280313,,,A*6C
$GPGGA,013023.000,3414.9385,N,10859.9867,E,1,04,3.0,385.4,M,-28.3,M,,0000*76
$GPGSA,A,3,09,26,05,15,,,,,,,,,3.2,3.0,1.0*3D
$GPGSV,3,1,11,24,85,122,,04,83,299,24,15,82,008,34,26,40,041,45*7F
$GPGSV,3,2,11,09,40,086,47,21,40,180,,05,26,077,44,07,20,297,*7E
$GPGSV,3,3,11,29,18,041,,20,03,283,,08,02,031,40*4A
$GPRMC,013023.000,A,3414.9385,N,10859.9867,E,0.21,263.96,280313,,,A*6D
$GPGGA,013024.000,3414.9384,N,10859.9864,E,1,04,3.0,385.0,M,-28.3,M,,0000*77
$GPGSA,A,3,09,26,05,15,,,,,,,,,3.2,3.0,1.0*3D
$GPRMC,013024.000,A,3414.9384,N,10859.9864,E,0.23,252.58,280313,,,A*6A
$GPGGA,013025.000,3414.9384,N,10859.9862,E,1,04,3.0,384.7,M,-28.3,M,,0000*76
$GPGSA,A,3,09,26,05,15,,,,,,,,,3.2,3.0,1.0*3D
$GPRMC,013025.000,A,3414.9384,N,10859.9862,E,0.23,263.39,280313,,,A*68
$GPGGA,013026.000,3414.9383,N,10859.9860,E,1,04,3.0,384.3,M,-28.3,M,,0000*74
$GPGSA,A,3,09,26,05,15,,,,,,,,,3.2,3.0,1.0*3D
$GPRMC,013026.000,A,3414.9383,N,10859.9860,E,0.21,254.13,280313,,,A*60
$GPGGA,013027.000,3414.9382,N,10859.9858,E,1,04,3.0,384.0,M,-28.3,M,,0000*7C
$GPGSA,A,3,09,26,05,15,,,,,,,,,3.2,3.0,1.0*3D
$GPRMC,013027.000,A,3414.9382,N,10859.9858,E,0.21,261.13,280313,,,A*6D
$GPGGA,013028.000,3414.9382,N,10859.9856,E,1,04,3.0,383.7,M,-28.3,M,,0000*7D
$GPGSA,A,3,09,26,05,15,,,,,,,,,3.2,3.0,1.0*3D
$GPGGA,000009.059,,,,,0,00,,,M,0.0,M,,0000*53                                
$GPGSA,A,1,,,,,,,,,,,,,,,*1E                                     
$GPRMC,000009.059,V,,,,,,,010407,,,N*4A                                      
$GPGGA,000010.069,,,,,0,00,,,M,0.0,M,,0000*58                                
$GPGSA,A,1,,,,,,,,,,,,,,,*1E                                                 
$GPRMC,000010.069,V,,,,,,,010407,,,N*41                     
$GPGGA,000011.059,,,,,0,00,,,M,0.0,M,,0000*5A               
$GPGSA,A,1,,,,,,,,,,,,,,,*1E                                
$GPGSV,3,1,12,20,00,000,,10,00,000,,31,00,000,,27,00,000,*7C
$GPGSV,3,2,12,19,00,000,,07,00,000,,04,00,000,,24,00,000,*76
$GPGSV,3,3,12,16,00,000,,28,00,000,,26,00,000,,29,00,000,*78
$GPRMC,000011.059,V,,,,,,,010407,,,N*43
$GPGGA,000012.059,,,,,0,00,,,M,0.0,M,,0000*59
$GPGSA,A,1,,,,,,,,,,,,,,,*1E
$GPRMC,000012.059,V,,,,,,,010407,,,N*40                                         
$GPGGA,000013.070,,,,,0,00,,,M,0.0,M,,0000*53                                   
$GPGSA,A,1,,,,,,,,,,,,,,,*1E                                                    
$GPRMC,000013.070,V,,,,,,,010407,,,N*4A                                         
$GPGGA,000014.059,,,,,0,00,,,M,0.0,M,,0000*5F                                   
$GPGSA,A,1,,,,,,,,,,,,,,,*1E                                     
$GPRMC,094915.000,A,3414.9093,N,10900.0406,E,0.00,0.00,210512,,,A*60
$GPVTG,0.00,T,,M,0.00,N,0.00,K,A*3D
$GPGGA,094916.000,3414.9093,N,10900.0406,E,1,5,1.54,188.4,M,-28.3,M,,*70
$GPRMC,094916.000,A,3414.9093,N,10900.0406,E,0.00,0.00,210512,,,A*63
$GPVTG,0.00,T,,M,0.00,N,0.00,K,A*3D
$GPGGA,094917.000,3414.9093,N,10900.0406,E,1,5,1.54,188.4,M,-28.3,M,,*71
$GPRMC,094917.000,A,3414.9093,N,10900.0406,E,0.00,0.00,210512,,,A*62
$GPVTG,0.00,T,,M,0.00,N,0.00,K,A*3D
$GPGGA,094918.000,3414.9093,N,10900.0406,E,1,5,1.54,188.4,M,-28.3,M,,*7E
$GPRMC,094918.000,A,3414.9093,N,10900.0406,E,0.00,0.00,210512,,,A*6D
$GPVTG,0.00,T,,M,0.00,N,0.00,K,A*3D
$GPGGA,094919.000,3414.9093,N,10900.0406,E,1,5,1.54,188.4,M,-28.3,M,,*7F
$GPRMC,094919.000,A,3414.9093,N,10900.0406,E,0.00,0.00,210512,,,A*6C
$GPVTG,0.00,T,,M,0.00,N,0.00,K,A*3D
$GPGGA,094920.000,3414.9093,N,10900.0406,E,1,5,1.54,188.4,M,-28.3,M,,*75
$GPGSA,A,3,19,13,23,07,06,,,,,,,,1.83,1.54,0.98*03
$GPGSV,2,1,08,19,72,183,40,13,51,260,41,06,49,048,23,07,41,319,39*73
$GPGSV,2,2,08,23,40,213,40,42,38,132,,08,05,311,,01,01,179,*7C
$GPRMC,094920.000,A,3414.9093,N,10900.0406,E,0.00,0.00,210512,,,A*66
$GPVTG,0.00,T,,M,0.00,N,0.00,K,A*3D
$GPGGA,094921.000,3414.9093,N,10900.0406,E,1,5,1.54,188.4,M,-28.3,M,,*74
$GPRMC,094921.000,A,3414.9093,N,10900.0406,E,0.00,0.00,210512,,,A*67
$GPVTG,0.00,T,,M,0.00,N,0.00,K,A*3D
$GPGSV,3,2,11,09,40,086,48,21,40,180,20,05,26,077,44,07,20,297,*73
$GPGSV,3,3,11,29,18,041,,20,03,283,,08,02,031,40*4A
$GPRMC,013018.000,A,3414.9390,N,10859.9880,E,0.21,257.04,280313,,,A*64
$GPGGA,013019.000,3414.9389,N,10859.9877,E,1,04,3.0,387.1,M,-28.3,M,,0000*75
$GPGSA,A,3,09,26,05,15,,,,,,,,,3.2,3.0,1.0*3D
$GPRMC,013019.000,A,3414.9389,N,10859.9877,E,0.25,256.46,280313,,,A*66
$GPGGA,013020.000,3414.9388,N,10859.9875,E,1,04,3.0,386.6,M,-28.3,M,,0000*7A
$GPGSA,A,3,09,26,05,15,,,,,,,,,3.2,3.0,1.0*3D
$GPRMC,013020.000,A,3414.9388,N,10859.9875,E,0.25,256.08,280313,,,A*65
$GPGGA,013021.000,3414.9387,N,10859.9872,E,1,04,3.0,386.2,M,-28.3,M,,0000*77
$GPGSA,A,3,09,26,05,15,,,,,,,,,3.2,3.0,1.0*3D
$GPRMC,013021.000,A,3414.9387,N,10859.9872,E,0.24,258.00,280313,,,A*6B
$GPGGA,013022.000,3414.9386,N,10859.9869,E,1,04,3.0,385.8,M,-28.3,M,,0000*76
$GPGSA,A,3,09,26,05,15,,,,,,,,,3.2,3.0,1.0*3D
$GPRMC,013022.000,A,3414.9386,N,10859.9869,E,0.24,256.45,280313,,,A*6C
$GPGGA,013023.000,3414.9385,N,10859.9867,E,1,04,3.0,385.4,M,-28.3,M,,0000*76
$GPGSA,A,3,09,26,05,15,,,,,,,,,3.2,3.0,1.0*3D
$GPGSV,3,1,11,24,85,122,,04,83,299,24,15,82,008,34,26,40,041,45*7F
$GPGSV,3,2,11,09,40,086,47,21,40,180,,05,26,077,44,07,20,297,*7E
$GPGSV,3,3,11,29,18,041,,20,03,283,,08,02,031,40*4A
$GPRMC,013023.000,A,3414.9385,N,10859.9867,E,0.21,263.96,280313,,,A*6D
$GPGGA,013024.000,3414.9384,N,10859.9864,E,1,04,3.0,385.0,M,-28.3,M,,0000*77
$GPGSA,A,3,09,26,05,15,,,,,,,,,3.2,3.0,1.0*3D
$GPRMC,013024.000,A,3414.9384,N,10859.9864,E,0.23,252.58,280313,,,A*6A
$GPGGA,013025.000,3414.9384,N,10859.9862,E,1,04,3.0,384.7,M,-28.3,M,,0000*76
$GPGSA,A,3,09,26,05,15,,,,,,,,,3.2,3.0,1.0*3D
$GPRMC,013025.000,A,3414.9384,N,10859.9862,E,0.23,263.39,280313,,,A*68
$GPGGA,013026.000,3414.9383,N,10859.9860,E,1,04,3.0,384.3,M,-28.3,M,,0000*74
$GPGSA,A,3,09,26,05,15,,,,,,,,,3.2,3.0,1.0*3D
$GPRMC,013026.000,A,3414.9383,N,10859.9860,E,0.21,254.13,280313,,,A*60
$GPGGA,013027.000,3414.9382,N,10859.9858,E,1,04,3.0,384.0,M,-28.3,M,,0000*7C
$GPGSA,A,3,09,26,05,15,,,,,,,,,3.2,3.0,1.0*3D
$GPRMC,013027.000,A,3414.9382,N,10859.9858,E,0.21,261.13,280313,,,A*6D
$GPGGA,013028.000,3414.9382,N,10859.9856,E,1,04,3.0,383.7,M,-28.3,M,,0000*7D
$GPGSA,A,3,09,26,05,15,,,,,,,,,3.2,3.0,1.0*3D
$GPGGA,000009.059,,,,,0,00,,,M,0.0,M,,0000*53                                
$GPGSA,A,1,,,,,,,,,,,,,,,*1E                                     
$GPRMC,000014.059,V,,,,,,,010407,,,N*46                                         
$GPGGA,000015.059,,,,,0,00,,,M,0.0,M,,0000*5E                                   
$GPGSA,A,1,,,,,,,,,,,,,,,*1E                                                    
$GPRMC,000015.059,V,,,,,,,010407,,,N*47                                         
$GPGGA,000016.070,,,,,0,00,,,M,0.0,M,,0000*56                                   
$GPGSA,A,1,,,,,,,,,,,,,,,*1E                                                    
$GPGSV,3,1,12,20,00,000,,10,00,000,,31,00,000,,27,00,000,*7C                    
$GPGSV,3,2,12,19,00,000,,07,00,000,,04,00,000,,24,00,000,*76                    
$GPGSV,3,3,12,16,00,000,,28,00,000,,26,00,000,,29,00,000,*78                    
$GPRMC,000016.070,V,,,,,,,010407,,,N*4F                                         
$GPGGA,000017.059,,,,,0,00,,,M,0.0,M,,0000*5C                                   
$GPGSA,A,1,,,,,,,,,,,,,,,*1E                                                    
$GPRMC,000017.059,V,,,,,,,010407,,,N*45                                         
$GPGGA,000018.059,,,,,0,00,,,M,0.0,M,,0000*53                                   
$GPGSA,A,1,,,,,,,,,,,,,,,*1E                                                    
$GPRMC,000018.059,V,,,,,,,010407,,,N*4A                                         
$GPGGA,000019.070,,,,,0,00,,,M,0.0,M,,0000*59                                   
$GPGSA,A,1,,,,,,,,,,,,,,,*1E                                                    
$GPRMC,000019.070,V,,,,,,,010407,,,N*40                                         
$GPGGA,000020.059,,,,,0,00,,,M,0.0,M,,0000*58                                   
$GPGSA,A,1,,,,,,,,,,,,,,,*1E                                                    
$GPRMC,000020.059,V,,,,,,,010407,,,N*41                                         
$GPGGA,000021.059,,,,,0,00,,,M,0.0,M,,0000*59                                   
$GPGSA,A,1,,,,,,,,,,,,,,,*1E                                                    
$GPGSV,3,1,12,20,00,000,,10,00,000,,31,00,000,,27,00,000,*7C                    
$GPGSV,3,2,12,19,00,000,,07,00,000,,04,00,000,,24,00,000,*76                    
$GPGSV,3,3,12,16,00,000,,28,00,000,,26,00,000,,29,00,000,*78                    
$GPRMC,000021.059,V,,,,,,,010407,,,N*40                                         
$GPGGA,000022.070,,,,,0,00,,,M,0.0,M,,0000*51                                   
$GPGSA,A,1,,,,,,,,,,,,,,,*1E                                                    
$GPRMC,000022.070,V,,,,,,,010407,,,N*48                                         
$GPGGA,000023.059,,,,,0,00,,,M,0.0,M,,0000*5B                                   
$GPGSA,A,1,,,,,,,,,,,,,,,*1E                                                    
$GPRMC,000023.059,V,,,,,,,010407,,,N*42                                         
$GPGGA,000024.059,,,,,0,00,,,M,0.0,M,,0000*5C                                   
$GPGSA,A,1,,,,,,,,,,,,,,,*1E                                                    
$GPRMC,000024.059,V,,,,,,,010407,,,N*45                                         
$GPGGA,000025.068,,,,,0,00,,,M,0.0,M,,0000*5F                                   
$GPGSA,A,1,,,,,,,,,,,,,,,*1E                                                    
$GPRMC,000025.068,V,,,,,,,010407,,,N*46                                         
$GPGGA,000026.059,,,,,0,00,,,M,0.0,M,,0000*5E                                   
$GPGSA,A,1,,,,,,,,,,,,,,,*1E                                                    
$GPGSV,3,1,12,20,00,000,,10,00,000,,31,00,000,,27,00,000,*7C                    
$GPGSV,3,2,12,19,00,000,,07,00,000,,04,00,000,,24,00,000,*76                    
$GPGSV,3,3,12,16,00,000,,28,00,000,,26,00,000,,29,00,000,*78                    
$GPRMC,000026.059,V,,,,,,,010407,,,N*47                                         
$GPGGA,000027.059,,,,,0,00,,,M,0.0,M,,0000*5F                                   
$GPGSA,A,1,,,,,,,,,,,,,,,*1E                                                    
$GPRMC,000027.059,V,,,,,,,010407,,,N*46                                         
$GPGGA,000028.070,,,,,0,00,,,M,0.0,M,,0000*5B                                   
$GPGSA,A,1,,,,,,,,,,,,,,,*1E                                                    
$GPRMC,000028.070,V,,,,,,,010407,,,N*42                                         
$GPGGA,000029.059,,,,,0,00,,,M,0.0,M,,0000*51                                   
$GPGSA,A,1,,,,,,,,,,,,,,,*1E                                                    
$GPRMC,000029.059,V,,,,,,,010407,,,N*48                                         
$GPGGA,000030.059,,,,,0,00,,,M,0.0,M,,0000*59                                   
$GPGSA,A,1,,,,,,,,,,,,,,,*1E                                                    
$GPRMC,000030.059,V,,,,,,,010407,,,N*40                                         
$GPGGA,000031.069,,,,,0,00,,,M,0.0,M,,0000*5B                                   
$GPGSA,A,1,,,,,,,,,,,,,,,*1E                                                    
$GPGSV,3,1,12,20,00,000,,10,00,000,,31,00,000,,27,00,000,*7C                    
$GPGSV,3,2,12,19,00,000,,07,00,000,,04,00,000,,24,00,000,*76                    
$GPGSV,3,3,12,16,00,000,,28,00,000,,26,00,000,,29,00,000,*78                    
$GPRMC,000031.069,V,,,,,,,010407,,,N*42                                         
$GPGGA,000032.059,,,,,0,00,,,M,0.0,M,,0000*5B                                   
$GPGSA,A,1,,,,,,,,,,,,,,,*1E                                                    
$GPRMC,000032.059,V,,,,,,,010407,,,N*42                                         
$GPGGA,000033.059,,,,,0,00,,,M,0.0,M,,0000*5A                                   
$GPGSA,A,1,,,,,,,,,,,,,,,*1E                                                    
$GPRMC,000033.059,V,,,,,,,010407,,,N*43                                         
$GPGGA,000034.069,,,,,0,00,,,M,0.0,M,,0000*5E                                   
$GPGSA,A,1,,,,,,,,,,,,,,,*1E                                                    
$GPRMC,000034.069,V,,,,,,,010407,,,N*47                                         
$GPGGA,000035.059,,,,,0,00,,,M,0.0,M,,0000*5C                                   
$GPGSA,A,1,,,,,,,,,,,,,,,*1E                                                    
$GPRMC,000035.059,V,,,,,,,010407,,,N*45                                         
$GPGGA,000036.059,,,,,0,00,,,M,0.0,M,,0000*5F                                   
$GPGSA,A,1,,,,,,,,,,,,,,,*1E                                                    
$GPGSV,3,1,12,20,00,000,,10,00,000,,31,00,000,,27,00,000,*7C                    
$GPGSV,3,2,12,19,00,000,,07,00,000,,04,00,000,,24,00,000,*76                    
$GPGSV,3,3,12,16,00,000,,28,00,000,,26,00,000,,29,00,000,*78                    
$GPRMC,000036.059,V,,,,,,,010407,,,N*                                         
$GPGGA,000037.069,,,,,0,00,,,M,0.0,M,,0000*5D                                   
$GPGSA,A,1,,,,,,,,,,,,,,,*1E                                                    
$GPRMC,000037.069,V,,,,,,,010407,,,N*44                                         
$GPGGA,000038.059,,,,,0,00,,,M,0.0,M,,0000*51                                   
$GPGSA,A,1,,,,,,,,,,,,,,,*1E                                                    
$GPRMC,000038.059,V,,,,,,,010407,,,N*48                                         
$GPGGA,000039.059,,,,,0,00,,,M,0.0,M,,0000*50                                   
$GPGSA,A,1,,,,,,,,,,,,,,,*1E                                                    
$GPRMC,000039.059,V,,,,,,,010407,,,N*49                                         
$GPGGA,000040.070,,,,,0,00,,,M,0.0,M,,0000*55                                   
$GPGSA,A,1,,,,,,,,,,,,,,,*1E                                                    
$GPRMC,000040.070,V,,,,,,,010407,,,N*4C                                         
$GPGGA,000041.059,,,,,0,00,,,M,0.0,M,,0000*5F                                   
$GPGSA,A,1,,,,,,,,,,,,,,,*1E                                                    
$GPGSV,3,1,12,20,00,000,,10,00,000,,31,00,000,,27,00,000,*7C                    
$GPGSV,3,2,12,19,00,000,,07,00,000,,04,00,000,,24,00,000,*76                    
$GPGSV,3,3,12,16,00,000,,28,00,000,,26,00,000,,29,00,000,*78                    
$GPRMC,000041.059,V,,,,,,,010407,,,N*46                                         
$GPGGA,000042.059,,,,,0,00,,,M,0.0,M,,0000*5C                                   
$GPGSA,A,1,,,,,,,,,,,,,,,*1E                                                    
$GPRMC,000042.059,V,,,,,,,010407,,,N*45                                         
$GPGGA,000043.069,,,,,0,00,,,M,0.0,M,,0000*5E                                   
$GPGSA,A,1,,,,,,,,,,,,,,,*1E                                                    
$GPRMC,000043.069,V,,,,,,,010407,,,N*47                                         
$GPGGA,000044.059,,,,,0,00,,,M,0.0,M,,0000*5A                                   
$GPGSA,A,1,,,,,,,,,,,,,,,*1E                                                    
$GPRMC,000044.059,V,,,,,,,010407,,,N*43                                         
$GPGGA,000045.059,,,,,0,00,,,M,0.0,M,,0000*5B                                   
$GPGSA,A,1,,,,,,,,,,,,,,,*1E                                                    
$GPRMC,000045.059,V,,,,,,,010407,,,N*42                                         
$GPGGA,000046.070,,,,,0,00,,,M,0.0,M,,0000*53                                   
$GPGSA,A,1,,,,,,,,,,,,,,,*1E                                                    
$GPGSV,3,1,12,20,00,000,,10,00,000,,31,00,000,,27,00,000,*7C                    
$GPGSV,3,2,12,19,00,000,,07,00,000,,04,00,000,,24,00,000,*76                    
$GPGSV,3,3,12,16,00,000,,28,00,000,,26,00,000,,29,00,000,*78                    
$GPRMC,000046.070,V,,,,,,,010407,,,N*4A                                         
$GPGGA,000047.059,,,,,0,00,,,M,0.0,M,,0000*59                                   
$GPGSA,A,1,,,,,,,,,,,,,,,*1E                                                    
$GPRMC,000047.059,V,,,,,,,010407,,,N*40                                         
$GPGGA,000048.059,,,,,0,00,,,M,0.0,M,,0000*56                                   
$GPGSA,A,1,,,,,,,,,,,,,,,*1E                                                    
$GPRMC,000048.059,V,,,,,,,010407,,,N*4F                                         
$GPGGA,000049.070,,,,,0,00,,,M,0.0,M,,0000*5C                                   
$GPGSA,A,1,,,,,,,,,,,,,,,*1E                                                    
$GPRMC,000049.070,V,,,,,,,010407,,,N*45                                         
$GPGGA,000050.059,,,,,0,00,,,M,0.0,M,,0000*5F                                   
$GPGSA,A,1,,,,,,,,,,,,,,,*1E                                                    
$GPRMC,000050.059,V,,,,,,,010407,,,N*46                                         
$GPGGA,000051.059,,,,,0,00,,,M,0.0,M,,0000*5E                                   
$GPGSA,A,1,,,,,,,,,,,,,,,*1E                                                    
$GPGSV,3,1,12,20,00,000,,10,00,000,,31,00,000,,27,00,000,*7C                    
$GPGSV,3,2,12,19,00,000,,07,00,000,,04,00,000,,24,00,000,*76                    
$GPGSV,3,3,12,16,00,000,,28,00,000,,26,00,000,,29,00,000,*78                    
$GPRMC,000051.059,V,,,,,,,010407,,,N*47                                         
$GPGGA,000052.069,,,,,0,00,,,M,0.0,M,,0000*5E                                   
$GPGSA,A,1,,,,,,,,,,,,,,,*1E 
$GPGSV,3,1,11,24,85,122,,04,83,299,,15,82,008,35,26,40,041,45*78
$GPGSV,3,2,11,09,40,086,48,21,40,180,,05,26,077,43,07,20,297,*76
$GPGSV,3,3,11,29,18,041,,20,03,283,,08,02,031,40*4A
$GPRMC,013028.000,A,3414.9382,N,10859.9856,E,0.21,254.76,280313,,,A*69
$GPGGA,013029.000,3414.9381,N,10859.9854,E,1,04,3.0,383.5,M,-28.3,M,,0000*7F
$GPGSA,A,3,09,26,05,15,,,,,,,,,3.2,3.0,1.0*3D
$GPRMC,013029.000,A,3414.9381,N,10859.9854,E,0.20,256.61,280313,,,A*6C
$GPGGA,013030.000,3414.9380,N,10859.9853,E,1,04,3.0,383.2,M,-28.3,M,,0000*76
$GPGSA,A,3,09,26,05,15,,,,,,,,,3.2,3.0,1.0*3D
$GPRMC,013030.000,A,3414.9380,N,10859.9853,E,0.20,261.54,280313,,,A*60
$GPGGA,013031.000,3414.9380,N,10859.9851,E,1,04,3.0,382.9,M,-28.3,M,,0000*7F
$GPGSA,A,3,09,26,05,15,,,,,,,,,3.2,3.0,1.0*3D
$GPRMC,013031.000,A,3414.9380,N,10859.9851,E,0.19,256.16,280313,,,A*6B
$GPGGA,013032.000,3414.9379,N,10859.9849,E,1,04,3.0,382.6,M,-28.3,M,,0000*7C
$GPGSA,A,3,09,26,05,15,,,,,,,,,3.2,3.0,1.0*3D
$GPRMC,013032.000,A,3414.9379,N,10859.9849,E,0.21,252.60,280313,,,A*69
$GPGGA,013033.000,3414.9378,N,10859.9847,E,1,04,3.0,382.4,M,-28.3,M,,0000*70
$GPGSA,A,3,09,26,05,15,,,,,,,,,3.2,3.0,1.0*3D
$GPGSV,3,1,11,24,85,122,,04,83,299,,15,82,008,34,26,40,041,46*7A
$GPGSV,3,2,11,09,40,086,48,21,40,180,,05,26,077,43,07,20,297,*76
$GPGSV,3,3,11,29,18,041,,20,03,283,,08,02,031,39*44
$GPRMC,013033.000,A,3414.9378,N,10859.9847,E,0.19,259.22,280313,,,A*61
$GPGGA,013034.000,3414.9378,N,10859.9846,E,1,04,3.0,382.1,M,-28.3,M,,0000*73
$GPGSA,A,3,09,26,05,15,,,,,,,,,3.2,3.0,1.0*3D
$GPRMC,013034.000,A,3414.9378,N,10859.9846,E,0.18,255.93,280313,,,A*60
$GPGGA,013035.000,3414.9377,N,10859.9844,E,1,04,3.0,381.9,M,-28.3,M,,0000*74
$GPGSA,A,3,09,26,05,15,,,,,,,,,3.2,3.0,1.0*3D
$GPRMC,013035.000,A,3414.9377,N,10859.9844,E,0.22,254.85,280313,,,A*63
$GPGGA,013036.000,3414.9376,N,10859.9842,E,1,04,3.0,381.6,M,-28.3,M,,0000*7F
$GPGSA,A,3,09,26,05,15,,,,,,,,,3.2,3.0,1.0*3D
$GPRMC,013036.000,A,3414.9376,N,10859.9842,E,0.16,262.59,280313,,,A*64
$GPGGA,013037.000,3414.9376,N,10859.9841,E,1,04,3.0,381.4,M,-28.3,M,,0000*7F
$GPGSA,A,3,09,26,05,15,,,,,,,,,3.2,3.0,1.0*3D
$GPRMC,013037.000,A,3414.9376,N,10859.9841,E,0.19,257.90,280313,,,A*6A
$GPGGA,013038.000,3414.9375,N,10859.9839,E,1,04,3.0,381.2,M,-28.3,M,,0000*7A
$GPGSA,A,3,09,26,05,15,,,,,,,,,3.2,3.0,1.0*3D
$GPGSV,3,1,11,24,85,122,,04,83,299,20,15,82,008,34,26,40,041,46*78
$GPGSV,3,2,11,09,40,086,48,21,40,180,,05,26,077,43,07,20,297,*76
$GPGSV,3,3,11,29,18,041,,20,03,283,,08,02,031,39*44
$GPRMC,013038.000,A,3414.9375,N,10859.9839,E,0.17,259.06,280313,,,A*66
$GPGGA,013039.000,3414.9374,N,10859.9838,E,1,04,3.0,380.9,M,-28.3,M,,0000*71
$GPGSA,A,3,09,26,05,15,,,,,,,,,3.2,3.0,1.0*3D
$GPRMC,013039.000,A,3414.9374,N,10859.9838,E,0.20,250.54,280313,,,A*6D
$GPGGA,013040.000,3414.9373,N,10859.9836,E,1,04,3.0,380.7,M,-28.3,M,,0000*78
$GPGSA,A,3,09,26,05,15,,,,,,,,,3.2,3.0,1.0*3D
$GPRMC,013040.000,A,3414.9373,N,10859.9836,E,0.16,256.10,280313,,,A*69
$GPGGA,013041.000,3414.9373,N,10859.9835,E,1,04,3.0,380.5,M,-28.3,M,,0000*78
$GPGSA,A,3,09,26,05,15,,,,,,,,,3.2,3.0,1.0*3D
$GPRMC,013041.000,A,3414.9373,N,10859.9835,E,0.19,256.71,280313,,,A*63
$GPGGA,013042.000,3414.9372,N,10859.9833,E,1,04,3.0,380.3,M,-28.3,M,,0000*7A
$GPGSA,A,3,09,26,05,15,,,,,,,,,3.2,3.0,1.0*3D
$GPRMC,013042.000,A,3414.9372,N,10859.9833,E,0.19,253.36,280313,,,A*61
$GPGGA,013043.000,3414.9371,N,10859.9832,E,1,04,3.0,380.1,M,-28.3,M,,0000*7B
$GPGSA,A,3,09,26,05,15,,,,,,,,,3.2,3.0,1.0*3D
$GPGSV,3,1,11,24,84,124,,04,83,298,,15,81,008,34,09,40,086,48*77
$GPGSV,3,2,11,26,40,041,47,21,40,180,,05,26,077,43,07,20,297,*7F
$GPGSV,3,3,11,29,17,042,,20,03,283,,08,02,031,40*46
$GPRMC,013043.000,A,3414.9371,N,10859.9832,E,0.17,256.48,280313,,,A*60
$GPGGA,013044.000,3414.9371,N,10859.9831,E,1,04,3.0,379.9,M,-28.3,M,,0000*71
$GPGSA,A,3,09,26,05,15,,,,,,,,,3.2,3.0,1.0*3D
$GPRMC,013044.000,A,3414.9371,N,10859.9831,E,0.16,259.36,280313,,,A*63
$GPGGA,013045.000,3414.9370,N,10859.9830,E,1,04,3.0,379.7,M,-28.3,M,,0000*7E
$GPGSA,A,3,09,26,05,15,,,,,,,,,3.2,3.0,1.0*3D
$GPRMC,013045.000,A,3414.9370,N,10859.9830,E,0.17,252.41,280313,,,A*68
$GPGGA,013046.000,3414.9369,N,10859.9828,E,1,04,3.0,379.6,M,-28.3,M,,0000*7D
$GPGSA,A,3,09,26,05,15,,,,,,,,,3.2,3.0,1.0*3D
$GPRMC,013046.000,A,3414.9369,N,10859.9828,E,0.15,255.60,280313,,,A*6C
$GPGGA,013047.000,3414.9369,N,10859.9827,E,1,04,3.0,379.4,M,-28.3,M,,0000*71
$GPGSA,A,3,09,26,05,15,,,,,,,,,3.2,3.0,1.0*3D
$GPRMC,013047.000,A,3414.9369,N,10859.9827,E,0.14,259.55,280313,,,A*69
$GPGGA,013048.000,3414.9368,N,10859.9826,E,1,04,3.0,379.3,M,-28.3,M,,0000*79
$GPGSA,A,3,09,26,05,15,,,,,,,,,3.2,3.0,1.0*3D
$GPGSV,3,1,12,24,84,124,,04,83,297,,15,81,008,35,09,40,086,48*7A
$GPGSV,3,2,12,26,40,041,47,21,40,180,,05,26,077,43,07,20,297,*7C
$GPGSV,3,3,12,29,17,042,,20,03,283,,08,02,030,40,02,02,138,*7E
$GPRMC,013048.000,A,3414.9368,N,10859.9826,E,0.16,255.99,280313,,,A*68
$GPGGA,013049.000,3414.9368,N,10859.9825,E,1,04,3.0,379.1,M,-28.3,M,,0000*79
$GPGSA,A,3,09,26,05,15,,,,,,,,,3.2,3.0,1.0*3D
$GPRMC,013049.000,A,3414.9368,N,10859.9825,E,0.16,260.43,280313,,,A*6B
$GPGGA,013050.000,3414.9367,N,10859.9825,E,1,04,3.0,379.0,M,-28.3,M,,0000*7F
$GPGSA,A,3,09,26,05,15,,,,,,,,,3.2,3.0,1.0*3D
$GPRMC,013050.000,A,3414.9367,N,10859.9825,E,0.15,249.76,280313,,,A*62
$GPGGA,013051.000,3414.9367,N,10859.9824,E,1,04,3.0,378.9,M,-28.3,M,,0000*77
$GPGSA,A,3,09,26,05,15,,,,,,,,,3.2,3.0,1.0*3D
$GPRMC,013051.000,A,3414.9367,N,10859.9824,E,0.16,255.35,280313,,,A*6B
$GPGGA,013052.000,3414.9366,N,10859.9823,E,1,04,3.0,378.7,M,-28.3,M,,0000*7C
$GPGSA,A,3,09,26,05,15,,,,,,,,,3.2,3.0,1.0*3D
$GPRMC,013052.000,A,3414.9366,N,10859.9823,E,0.10,261.75,280313,,,A*6B
$GPGGA,013053.000,3414.9366,N,10859.9823,E,1,04,3.0,378.6,M,-28.3,M,,0000*7C
$GPGSA,A,3,09,26,05,15,,,,,,,,,3.2,3.0,1.0*3D
$GPGSV,3,1,12,24,84,124,,04,83,297,,15,81,008,36,09,40,086,48*79
$GPGSV,3,2,12,26,40,041,47,21,40,180,,05,26,077,43,07,20,297,19*74
$GPGSV,3,3,12,29,17,042,,20,03,283,,08,02,030,40,02,02,138,*7E
$GPRMC,013053.000,A,3414.9366,N,10859.9823,E,0.09,270.11,280313,,,A*60
$GPGGA,013054.000,3414.9366,N,10859.9822,E,1,04,3.0,378.5,M,-28.3,M,,0000*79
$GPGSA,A,3,09,26,05,15,,,,,,,,,3.2,3.0,1.0*3D
$GPRMC,013054.000,A,3414.9366,N,10859.9822,E,0.09,265.68,280313,,,A*6C
$GPGGA,013055.000,3414.9365,N,10859.9822,E,1,04,3.0,378.4,M,-28.3,M,,0000*7A
$GPGSA,A,3,09,26,05,15,,,,,,,,,3.2,3.0,1.0*3D
$GPRMC,013055.000,A,3414.9365,N,10859.9822,E,0.06,268.57,280313,,,A*60
$GPGGA,013056.000,3414.9365,N,10859.9822,E,1,04,3.0,378.3,M,-28.3,M,,0000*7E
$GPGSA,A,3,09,26,05,15,,,,,,,,,3.2,3.0,1.0*3D
$GPRMC,013056.000,A,3414.9365,N,10859.9822,E,0.07,282.33,280313,,,A*64
$GPGGA,013057.000,3414.9365,N,10859.9821,E,1,04,3.0,378.2,M,-28.3,M,,0000*7D
$GPGSA,A,3,09,26,05,15,,,,,,,,,3.2,3.0,1.0*3D
$GPRMC,013057.000,A,3414.9365,N,10859.9821,E,0.05,261.27,280313,,,A*6C
$GPGGA,013058.000,3414.9365,N,10859.9821,E,1,04,3.0,378.2,M,-28.3,M,,0000*72
$GPGSA,A,3,09,26,05,15,,,,,,,,,3.2,3.0,1.0*3D
$GPGSV,3,1,12,24,84,124,23,04,83,297,,15,81,008,36,09,40,086,48*78
$GPGSV,3,2,12,26,40,041,46,21,40,180,,05,26,077,43,07,20,297,*7D
$GPGSV,3,3,12,29,17,042,,20,03,283,,08,02,030,40,02,02,138,*7E
$GPRMC,013058.000,A,3414.9365,N,10859.9821,E,0.05,281.65,280313,,,A*6B
$GPGGA,013059.000,3414.9364,N,10859.9821,E,1,04,3.0,378.1,M,-28.3,M,,0000*71
$GPGSA,A,3,09,26,05,15,,,,,,,,,3.2,3.0,1.0*3D
$GPRMC,013059.000,A,3414.9364,N,10859.9821,E,0.04,269.91,280313,,,A*67
$GPGGA,013100.000,3414.9364,N,10859.9821,E,1,04,3.0,378.0,M,-28.3,M,,0000*7D
$GPGSA,A,3,09,26,05,15,,,,,,,,,3.2,3.0,1.0*3D
$GPRMC,013100.000,A,3414.9364,N,10859.9821,E,0.05,319.69,280313,,,A*6A
$GPGGA,013101.000,3414.9364,N,10859.9820,E,1,04,3.0,377.8,M,-28.3,M,,0000*7A
$GPGSA,A,3,09,26,05,15,,,,,,,,,3.2,3.0,1.0*3D
$GPRMC,013101.000,A,3414.9364,N,10859.9820,E,0.04,336.16,280313,,,A*6E
$GPGGA,013102.000,3414.9364,N,10859.9820,E,1,04,3.0,377.7,M,-28.3,M,,0000*76
$GPGSA,A,3,09,26,05,15,,,,,,,,,3.2,3.0,1.0*3D
$GPRMC,013102.000,A,3414.9364,N,10859.9820,E,0.05,317.46,280313,,,A*6A
$GPGGA,013103.000,3414.9364,N,10859.9820,E,1,04,3.0,377.6,M,-28.3,M,,0000*76
$GPGSA,A,3,09,26,05,15,,,,,,,,,3.2,3.0,1.0*3D
$GPGSV,3,1,12,24,84,124,,04,83,297,,15,81,008,37,09,40,086,48*78
$GPGSV,3,2,12,26,40,041,46,21,40,180,,05,26,077,43,07,20,297,*7D
$GPGSV,3,3,12,29,17,042,,20,03,283,,08,02,030,40,02,02,138,*7E
$GPRMC,013103.000,A,3414.9364,N,10859.9820,E,0.05,298.55,280313,,,A*6F
$GPGGA,013104.000,3414.9364,N,10859.9819,E,1,04,3.0,377.5,M,-28.3,M,,0000*78
$GPGSA,A,3,09,26,05,15,,,,,,,,,3.2,3.0,1.0*3D
$GPRMC,013104.000,A,3414.9364,N,10859.9819,E,0.04,314.25,280313,,,A*61
$GPGGA,013105.000,3414.9363,N,10859.9819,E,1,04,3.0,377.4,M,-28.3,M,,0000*7F
$GPGSA,A,3,09,26,05,15,,,,,,,,,3.2,3.0,1.0*3D
$GPRMC,013105.000,A,3414.9363,N,10859.9819,E,0.05,337.46,280313,,,A*62
$GPGGA,013106.000,3414.9363,N,10859.9819,E,1,04,3.0,377.3,M,-28.3,M,,0000*7B
$GPGSA,A,3,09,26,05,15,,,,,,,,,3.2,3.0,1.0*3D
$GPRMC,013106.000,A,3414.9363,N,10859.9819,E,0.04,307.54,280313,,,A*60
$GPGGA,013107.000,3414.9363,N,10859.9819,E,1,04,3.0,377.1,M,-28.3,M,,0000*78
$GPGSA,A,3,09,26,05,15,,,,,,,,,3.2,3.0,1.0*3D
$GPRMC,013107.000,A,3414.9363,N,10859.9819,E,0.04,308.80,280313,,,A*67
$GPGGA,013108.000,3414.9363,N,10859.9818,E,1,04,3.0,377.0,M,-28.3,M,,0000*77
$GPGSA,A,3,09,26,05,15,,,,,,,,,3.2,3.0,1.0*3D
$GPGSV,3,1,12,24,84,124,,04,83,297,,15,81,008,37,09,40,086,48*78
$GPGSV,3,2,12,26,40,041,45,21,40,180,,05,26,077,42,07,20,297,*7F
$GPGSV,3,3,12,29,17,042,,20,03,283,,08,02,030,39,02,02,138,*70
$GPRMC,013108.000,A,3414.9363,N,10859.9818,E,0.04,306.88,280313,,,A*6F
$GPGGA,013109.000,3414.9363,N,10859.9818,E,1,04,3.0,376.9,M,-28.3,M,,0000*7E
$GPGSA,A,3,09,26,05,15,,,,,,,,,3.2,3.0,1.0*3D
$GPRMC,013109.000,A,3414.9363,N,10859.9818,E,0.05,326.47,280313,,,A*6E
$GPGGA,013110.000,3414.9363,N,10859.9818,E,1,04,3.0,376.8,M,-28.3,M,,0000*77
$GPGSA,A,3,09,26,05,15,,,,,,,,,3.2,3.0,1.0*3D
$GPRMC,013110.000,A,3414.9363,N,10859.9818,E,0.04,334.78,280313,,,A*68
$GPGGA,013111.000,3414.9363,N,10859.9818,E,1,04,3.0,376.7,M,-28.3,M,,0000*79
$GPGSA,A,3,09,26,05,15,,,,,,,,,3.2,3.0,1.0*3D
$GPRMC,013111.000,A,3414.9363,N,10859.9818,E,0.05,318.34,280313,,,A*6E
$GPGGA,013112.000,3414.9363,N,10859.9818,E,1,04,3.0,376.6,M,-28.3,M,,0000*7B
$GPGSA,A,3,09,26,05,15,,,,,,,,,3.2,3.0,1.0*3D
$GPRMC,013112.000,A,3414.9363,N,10859.9818,E,0.05,302.67,280313,,,A*60
$GPGGA,013113.000,3414.9363,N,10859.9817,E,1,04,3.0,376.5,M,-28.3,M,,0000*76
$GPGSA,A,3,09,26,05,15,,,,,,,,,3.2,3.0,1.0*3D
$GPGSV,3,1,12,24,84,125,,04,84,296,,15,81,009,37,09,40,086,48*7E
$GPGSV,3,2,12,26,40,041,45,21,40,180,,05,26,078,43,07,20,297,*71
$GPGSV,3,3,12,29,17,042,,20,03,283,,08,02,030,40,02,02,139,*7F
$GPRMC,013113.000,A,3414.9363,N,10859.9817,E,0.03,315.80,280313,,,A*67
$GPGGA,013114.000,3414.9363,N,10859.9817,E,1,04,3.0,376.4,M,-28.3,M,,0000*70
$GPGSA,A,3,09,26,05,15,,,,,,,,,3.2,3.0,1.0*3D
$GPRMC,013114.000,A,3414.9363,N,10859.9817,E,0.05,301.99,280313,,,A*6B
$GPGGA,013115.000,3414.9363,N,10859.9817,E,1,04,3.0,376.3,M,-28.3,M,,0000*76
$GPGSA,A,3,09,26,05,15,,,,,,,,,3.2,3.0,1.0*3D
$GPRMC,013115.000,A,3414.9363,N,10859.9817,E,0.06,313.56,280313,,,A*69
$GPGGA,013116.000,3414.9363,N,10859.9817,E,1,04,3.0,376.2,M,-28.3,M,,0000*74
$GPGSA,A,3,09,26,05,15,,,,,,,,,3.2,3.0,1.0*3D
$GPRMC,013116.000,A,3414.9363,N,10859.9817,E,0.04,339.24,280313,,,A*65
$GPGGA,013117.000,3414.9363,N,10859.9817,E,1,04,3.0,376.1,M,-28.3,M,,0000*76
$GPGSA,A,3,09,26,05,15,,,,,,,,,3.2,3.0,1.0*3D
$GPRMC,013117.000,A,3414.9363,N,10859.9817,E,0.03,293.88,280313,,,A*64
$GPGGA,013118.000,3414.9363,N,10859.9816,E,1,04,3.0,376.0,M,-28.3,M,,0000*79
$GPGSA,A,3,09,26,05,15,,,,,,,,,3.2,3.0,1.0*3D
$GPGSV,3,1,12,24,84,126,15,04,84,296,,15,81,009,37,09,40,086,47*76
$GPGSV,3,2,12,26,40,041,45,21,39,180,,05,26,078,42,07,20,297,*7E
$GPGSV,3,3,12,29,17,042,,20,03,283,,08,02,030,40,02,02,139,*7F
$GPRMC,013118.000,A,3414.9363,N,10859.9816,E,0.05,324.41,280313,,,A*64
$GPGGA,013119.000,3414.9363,N,10859.9816,E,1,04,3.0,375.9,M,-28.3,M,,0000*72
$GPGSA,A,3,09,26,05,15,,,,,,,,,3.2,3.0,1.0*3D
$GPRMC,013119.000,A,3414.9363,N,10859.9816,E,0.05,324.91,280313,,,A*68
$GPGGA,013120.000,3414.9363,N,10859.9816,E,1,04,3.0,375.8,M,-28.3,M,,0000*79
$GPGSA,A,3,09,26,05,15,,,,,,,,,3.2,3.0,1.0*3D
$GPRMC,013120.000,A,3414.9363,N,10859.9816,E,0.05,325.72,280313,,,A*6E
$GPGGA,013121.000,3414.9363,N,10859.9816,E,1,04,3.0,375.7,M,-28.3,M,,0000*77
$GPGSA,A,3,09,26,05,15,,,,,,,,,3.2,3.0,1.0*3D
$GPRMC,013121.000,A,3414.9363,N,10859.9816,E,0.05,308.22,280313,,,A*65
$GPGGA,013122.000,3414.9363,N,10859.9816,E,1,04,3.0,375.6,M,-28.3,M,,0000*75
$GPGSA,A,3,09,26,05,15,,,,,,,,,3.2,3.0,1.0*3D
$GPRMC,013122.000,A,3414.9363,N,10859.9816,E,0.03,313.86,280313,,,A*64
$GPGGA,013123.000,3414.9363,N,10859.9816,E,1,04,3.0,375.5,M,-28.3,M,,0000*77
$GPGSA,A,3,09,26,05,15,,,,,,,,,3.2,3.0,1.0*3D
$GPGSV,3,1,12,24,84,126,,04,84,296,,15,81,009,37,09,40,086,47*72
$GPGSV,3,2,12,26,40,041,46,21,39,180,,05,26,078,42,07,20,297,*7D
$GPGSV,3,3,12,29,17,042,,20,03,283,,08,02,030,40,02,02,139,*7F
$GPRMC,013123.000,A,3414.9363,N,10859.9816,E,0.04,321.75,280313,,,A*6F
$GPGGA,013124.000,3414.9363,N,10859.9816,E,1,04,3.0,375.4,M,-28.3,M,,0000*71
$GPGSA,A,3,09,26,05,15,,,,,,,,,3.2,3.0,1.0*3D
$GPRMC,013124.000,A,3414.9363,N,10859.9816,E,0.04,337.23,280313,,,A*6C
$GPGGA,013125.000,3414.9362,N,10859.9816,E,1,04,3.0,375.4,M,-28.3,M,,0000*71
$GPGSA,A,3,09,26,05,15,,,,,,,,,3.2,3.0,1.0*3D
$GPRMC,013125.000,A,3414.9362,N,10859.9816,E,0.04,315.60,280313,,,A*6B
$GPGGA,013126.000,3414.9362,N,10859.9816,E,1,04,3.0,375.3,M,-28.3,M,,0000*75
$GPGSA,A,3,09,26,05,15,,,,,,,,,3.2,3.0,1.0*3D
$GPRMC,013126.000,A,3414.9362,N,10859.9816,E,0.04,334.65,280313,,,A*6E
$GPGGA,013127.000,3414.9362,N,10859.9816,E,1,04,3.0,375.2,M,-28.3,M,,0000*75
$GPGSA,A,3,09,26,05,15,,,,,,,,,3.2,3.0,1.0*3D
$GPRMC,013127.000,A,3414.9362,N,10859.9816,E,0.04,355.31,280313,,,A*69
$GPGGA,013128.000,3414.9362,N,10859.9816,E,1,04,3.0,375.2,M,-28.3,M,,0000*7A
$GPGSA,A,3,09,26,05,15,,,,,,,,,3.2,3.0,1.0*3D
$GPGSV,3,1,12,24,84,126,,04,84,296,,15,81,009,37,09,40,086,46*73
$GPGSV,3,2,12,26,40,041,46,21,39,180,,05,26,078,43,07,20,297,*7C
$GPGSV,3,3,12,29,17,042,,20,03,283,,08,02,030,40,02,02,139,*7F
$GPRMC,013128.000,A,3414.9362,N,10859.9816,E,0.04,305.47,280313,,,A*62
$GPGGA,013129.000,3414.9362,N,10859.9816,E,1,04,3.0,375.1,M,-28.3,M,,0000*78
$GPGSA,A,3,09,26,05,15,,,,,,,,,3.2,3.0,1.0*3D
$GPRMC,013129.000,A,3414.9362,N,10859.9816,E,0.06,341.93,280313,,,A*68
$GPGGA,013130.000,3414.9362,N,10859.9816,E,1,04,3.0,375.1,M,-28.3,M,,0000*70
$GPGSA,A,3,09,26,05,15,,,,,,,,,3.2,3.0,1.0*3D
$GPRMC,013130.000,A,3414.9362,N,10859.9816,E,0.04,17.37,280313,,,A*5C
$GPGGA,013131.000,3414.9362,N,10859.9816,E,1,04,3.0,375.0,M,-28.3,M,,0000*70
$GPGSA,A,3,09,26,05,15,,,,,,,,,3.2,3.0,1.0*3D
$GPRMC,013131.000,A,3414.9362,N,10859.9816,E,0.04,343.98,280313,,,A*6A
$GPGGA,013132.000,3414.9362,N,10859.9816,E,1,04,3.0,375.0,M,-28.3,M,,0000*73
$GPGSA,A,3,09,26,05,15,,,,,,,,,3.2,3.0,1.0*3D
$GPRMC,013132.000,A,3414.9362,N,10859.9816,E,0.05,318.19,280313,,,A*6F
$GPGGA,013133.000,3414.9362,N,10859.9816,E,1,04,3.0,374.9,M,-28.3,M,,0000*7A
$GPGSA,A,3,09,26,05,15,,,,,,,,,3.2,3.0,1.0*3D
$GPGSV,3,1,12,24,84,126,,04,84,296,,15,81,009,37,09,40,086,46*73
$GPGSV,3,2,12,26,40,041,47,21,39,180,,05,26,078,42,07,20,297,*7C
$GPGSV,3,3,12,29,17,042,,20,03,283,,08,02,030,40,02,02,139,*7F
$GPRMC,013133.000,A,3414.9362,N,10859.9816,E,0.04,331.13,280313,,,A*6E
$GPGGA,013134.000,3414.9361,N,10859.9816,E,1,04,3.0,374.9,M,-28.3,M,,0000*7E
$GPGSA,A,3,09,26,05,15,,,,,,,,,3.2,3.0,1.0*3D
$GPRMC,013134.000,A,3414.9361,N,10859.9816,E,0.03,354.97,280313,,,A*62
$GPGGA,013135.000,3414.9361,N,10859.9816,E,1,04,3.0,374.8,M,-28.3,M,,0000*7E
$GPGSA,A,3,09,26,05,15,,,,,,,,,3.2,3.0,1.0*3D
$GPRMC,013135.000,A,3414.9361,N,10859.9816,E,0.04,307.43,280313,,,A*6B
$GPGGA,013136.000,3414.9361,N,10859.9816,E,1,04,3.0,374.7,M,-28.3,M,,0000*72
$GPGSA,A,3,09,26,05,15,,,,,,,,,3.2,3.0,1.0*3D
$GPRMC,013136.000,A,3414.9361,N,10859.9816,E,0.04,2.74,280313,,,A*6A
$GPGGA,013137.000,3414.9361,N,10859.9816,E,1,04,3.0,374.7,M,-28.3,M,,0000*73
$GPGSA,A,3,09,26,05,15,,,,,,,,,3.2,3.0,1.0*3D
$GPRMC,013137.000,A,3414.9361,N,10859.9816,E,0.04,314.29,280313,,,A*67
$GPGGA,013138.000,3414.9360,N,10859.9815,E,1,04,3.0,374.6,M,-28.3,M,,0000*7F
$GPGSA,A,3,09,26,05,15,,,,,,,,,3.2,3.0,1.0*3D
$GPGSV,3,1,12,24,84,126,,04,84,296,,15,81,009,36,09,40,086,47*73
$GPGSV,3,2,12,26,40,041,46,21,39,180,,05,26,078,42,07,20,297,*7D
$GPGSV,3,3,12,29,17,042,23,20,03,283,,08,02,030,40,02,02,139,*7E
$GPRMC,013138.000,A,3414.9360,N,10859.9815,E,0.03,328.18,280313,,,A*60
$GPGGA,013139.000,3414.9360,N,10859.9815,E,1,04,3.0,374.5,M,-28.3,M,,0000*7D
$GPGSA,A,3,09,26,05,15,,,,,,,,,3.2,3.0,1.0*3D
$GPRMC,013139.000,A,3414.9360,N,10859.9815,E,0.03,332.13,280313,,,A*61
$GPGGA,013140.000,3414.9360,N,10859.9815,E,1,04,3.0,374.5,M,-28.3,M,,0000*73
$GPGSA,A,3,09,26,05,15,,,,,,,,,3.2,3.0,1.0*3D
$GPRMC,013140.000,A,3414.9360,N,10859.9815,E,0.03,327.04,280313,,,A*6D
$GPGGA,013141.000,3414.9360,N,10859.9815,E,1,04,3.0,374.4,M,-28.3,M,,0000*73
$GPGSA,A,3,09,26,05,15,,,,,,,,,3.2,3.0,1.0*3D
$GPRMC,013141.000,A,3414.9360,N,10859.9815,E,0.04,339.75,280313,,,A*62
$GPGGA,013142.000,3414.9359,N,10859.9815,E,1,04,3.0,374.4,M,-28.3,M,,0000*7A
$GPGSA,A,3,09,26,05,15,,,,,,,,,3.2,3.0,1.0*3D
$GPRMC,013142.000,A,3414.9359,N,10859.9815,E,0.03,305.96,280313,,,A*6E
$GPGGA,013143.000,3414.9359,N,10859.9814,E,1,04,3.0,374.3,M,-28.3,M,,0000*7D
$GPGSA,A,3,09,26,05,15,,,,,,,,,3.2,3.0,1.0*3D
$GPGSV,3,1,12,24,84,126,23,04,84,296,13,15,81,009,36,09,40,086,47*70
$GPGSV,3,2,12,26,40,041,46,21,39,180,,05,26,078,42,07,20,297,*7D
$GPGSV,3,3,12,29,17,042,,20,03,283,,08,02,030,40,02,02,139,*7F
$GPRMC,013143.000,A,3414.9359,N,10859.9814,E,0.04,297.25,280313,,,A*6B
$GPGGA,013144.000,3414.9359,N,10859.9814,E,1,04,3.0,374.2,M,-28.3,M,,0000*7B
$GPGSA,A,3,09,26,05,15,,,,,,,,,3.2,3.0,1.0*3D
$GPRMC,013144.000,A,3414.9359,N,10859.9814,E,0.06,285.03,280313,,,A*69
$GPGGA,013145.000,3414.9358,N,10859.9813,E,1,04,3.0,374.1,M,-28.3,M,,0000*7F
$GPGSA,A,3,09,26,05,15,,,,,,,,,3.2,3.0,1.0*3D
$GPRMC,013145.000,A,3414.9358,N,10859.9813,E,0.05,265.49,280313,,,A*6D
$GPGGA,013146.000,3414.9358,N,10859.9813,E,1,04,3.0,374.1,M,-28.3,M,,0000*7C
$GPGSA,A,3,09,26,05,15,,,,,,,,,3.2,3.0,1.0*3D
$GPRMC,013146.000,A,3414.9358,N,10859.9813,E,0.08,269.23,280313,,,A*63
$GPGGA,013147.000,3414.9357,N,10859.9812,E,1,04,3.0,374.0,M,-28.3,M,,0000*72
$GPGSA,A,3,09,26,05,15,,,,,,,,,3.2,3.0,1.0*3D
$GPRMC,013147.000,A,3414.9357,N,10859.9812,E,0.07,258.61,280313,,,A*67
$GPGGA,013148.000,3414.9357,N,10859.9812,E,1,04,3.0,373.9,M,-28.3,M,,0000*73
$GPGSA,A,3,09,26,05,15,,,,,,,,,3.2,3.0,1.0*3D
$GPGSV,3,1,11,24,84,127,,15,81,010,35,09,40,085,47,26,40,041,46*7B
$GPGSV,3,2,11,21,39,180,,05,25,078,43,07,20,297,,29,17,042,*70
$GPGSV,3,3,11,20,03,283,,08,02,030,40,02,01,139,*44
$GPRMC,013148.000,A,3414.9357,N,10859.9812,E,0.08,277.62,280313,,,A*69
$GPGGA,013149.000,3414.9357,N,10859.9811,E,1,04,3.0,373.8,M,-28.3,M,,0000*70
$GPGSA,A,3,09,26,05,15,,,,,,,,,3.2,3.0,1.0*3D
$GPRMC,013149.000,A,3414.9357,N,10859.9811,E,0.08,264.90,280313,,,A*64
$GPGGA,013150.000,3414.9356,N,10859.9810,E,1,04,3.0,373.7,M,-28.3,M,,0000*77
$GPGSA,A,3,09,26,05,15,,,,,,,,,3.2,3.0,1.0*3D
$GPRMC,013150.000,A,3414.9356,N,10859.9810,E,0.09,265.41,280313,,,A*60
$GPGGA,013151.000,3414.9356,N,10859.9810,E,1,04,3.0,373.6,M,-28.3,M,,0000*77
$GPGSA,A,3,09,26,05,15,,,,,,,,,3.2,3.0,1.0*3D
$GPRMC,013151.000,A,3414.9356,N,10859.9810,E,0.08,266.26,280313,,,A*62
$GPGGA,013152.000,3414.9355,N,10859.9809,E,1,04,3.0,373.6,M,-28.3,M,,0000*7F
$GPGSA,A,3,09,26,05,15,,,,,,,,,3.2,3.0,1.0*3D
$GPRMC,013152.000,A,3414.9355,N,10859.9809,E,0.10,264.45,280313,,,A*64
$GPGGA,013153.000,3414.9355,N,10859.9808,E,1,04,3.0,373.5,M,-28.3,M,,0000*7C
$GPGSA,A,3,09,26,05,15,,,,,,,,,3.2,3.0,1.0*3D
$GPGSV,3,1,11,24,84,127,,15,81,010,34,09,40,085,47,26,40,041,46*7A
$GPGSV,3,2,11,21,39,180,,05,25,078,43,07,20,297,,29,17,042,19*78
$GPGSV,3,3,11,20,03,283,,08,02,030,39,02,01,139,*4A
$GPRMC,013153.000,A,3414.9355,N,10859.9808,E,0.08,270.48,280313,,,A*65
$GPGGA,013154.000,3414.9354,N,10859.9807,E,1,04,3.0,373.4,M,-28.3,M,,0000*74
$GPGSA,A,3,09,26,05,15,,,,,,,,,3.2,3.0,1.0*3D
$GPRMC,013154.000,A,3414.9354,N,10859.9807,E,0.11,245.40,280313,,,A*6A
$GPGGA,013155.000,3414.9354,N,10859.9806,E,1,04,3.0,373.2,M,-28.3,M,,0000*72
$GPGSA,A,3,09,26,05,15,,,,,,,,,3.2,3.0,1.0*3D
$GPRMC,013155.000,A,3414.9354,N,10859.9806,E,0.11,261.53,280313,,,A*6E
$GPGGA,013156.000,3414.9353,N,10859.9805,E,1,04,3.0,373.1,M,-28.3,M,,0000*76
$GPGSA,A,3,09,26,05,15,,,,,,,,,3.2,3.0,1.0*3D
$GPRMC,013156.000,A,3414.9353,N,10859.9805,E,0.10,258.03,280313,,,A*67
$GPGGA,013157.000,3414.9352,N,10859.9804,E,1,04,3.0,373.0,M,-28.3,M,,0000*76
$GPGSA,A,3,09,26,05,15,,,,,,,,,3.2,3.0,1.0*3D
$GPRMC,013157.000,A,3414.9352,N,10859.9804,E,0.14,256.07,280313,,,A*68
$GPGGA,013158.000,3414.9352,N,10859.9803,E,1,04,3.0,372.9,M,-28.3,M,,0000*76
$GPGSA,A,3,09,26,05,15,,,,,,,,,3.2,3.0,1.0*3D
$GPGSV,3,1,11,24,84,127,,15,81,010,34,09,40,085,48,26,40,041,46*75
$GPGSV,3,2,11,21,39,180,,05,25,078,43,07,20,297,17,29,17,042,*76
$GPGSV,3,3,11,20,03,283,,08,02,030,39,02,01,139,*4A
$GPRMC,013158.000,A,3414.9352,N,10859.9803,E,0.10,261.04,280313,,,A*63
$GPGGA,013159.000,3414.9351,N,10859.9802,E,1,04,3.0,372.7,M,-28.3,M,,0000*7B
$GPGSA,A,3,09,26,05,15,,,,,,,,,3.2,3.0,1.0*3D
$GPRMC,013159.000,A,3414.9351,N,10859.9802,E,0.12,271.85,280313,,,A*6A
$GPGGA,013200.000,3414.9351,N,10859.9800,E,1,04,3.0,372.6,M,-28.3,M,,0000*77
$GPGSA,A,3,09,26,05,15,,,,,,,,,3.2,3.0,1.0*3D
$GPRMC,013200.000,A,3414.9351,N,10859.9800,E,0.11,269.89,280313,,,A*61
$GPGGA,013201.000,3414.9350,N,10859.9799,E,1,04,3.0,372.4,M,-28.3,M,,0000*7A
$GPGSA,A,3,09,26,05,15,,,,,,,,,3.2,3.0,1.0*3D
$GPRMC,013201.000,A,3414.9350,N,10859.9799,E,0.11,261.43,280313,,,A*60
$GPGGA,013202.000,3414.9350,N,10859.9798,E,1,04,3.0,372.2,M,-28.3,M,,0000*7E
$GPGSA,A,3,09,26,05,15,,,,,,,,,3.2,3.0,1.0*3D
$GPRMC,013202.000,A,3414.9350,N,10859.9798,E,0.15,269.29,280313,,,A*62
$GPGGA,013203.000,3414.9349,N,10859.9796,E,1,04,3.0,372.1,M,-28.3,M,,0000*7A
$GPGSA,A,3,09,26,05,15,,,,,,,,,3.2,3.0,1.0*3D
$GPGSV,3,1,11,24,84,127,,15,81,010,34,09,40,085,48,26,40,041,46*75
$GPGSV,3,2,11,21,39,180,,05,25,078,43,07,20,297,11,29,17,042,*70
$GPGSV,3,3,11,20,03,283,,08,02,030,39,02,01,139,*4A
$GPRMC,013203.000,A,3414.9349,N,10859.9796,E,0.10,273.38,280313,,,A*6B
$GPGGA,013204.000,3414.9349,N,10859.9795,E,1,04,3.0,371.9,M,-28.3,M,,0000*75
$GPGSA,A,3,09,26,05,15,,,,,,,,,3.2,3.0,1.0*3D
$GPRMC,013204.000,A,3414.9349,N,10859.9795,E,0.13,257.57,280313,,,A*63
$GPGGA,013205.000,3414.9348,N,10859.9794,E,1,04,3.0,371.7,M,-28.3,M,,0000*7A
$GPGSA,A,3,09,26,05,15,,,,,,,,,3.2,3.0,1.0*3D
$GPRMC,013205.000,A,3414.9348,N,10859.9794,E,0.15,260.64,280313,,,A*60
$GPGGA,013206.000,3414.9347,N,10859.9792,E,1,04,3.0,371.5,M,-28.3,M,,0000*72
$GPGSA,A,3,09,26,05,15,,,,,,,,,3.2,3.0,1.0*3D
$GPRMC,013206.000,A,3414.9347,N,10859.9792,E,0.13,268.55,280313,,,A*66
$GPGGA,013207.000,3414.9347,N,10859.9791,E,1,04,3.0,371.3,M,-28.3,M,,0000*76
$GPGSA,A,3,09,26,05,15,,,,,,,,,3.2,3.0,1.0*3D
$GPRMC,013207.000,A,3414.9347,N,10859.9791,E,0.13,263.17,280313,,,A*69
$GPGGA,013208.000,3414.9346,N,10859.9789,E,1,04,3.0,371.1,M,-28.3,M,,0000*73
$GPGSA,A,3,09,26,05,15,,,,,,,,,3.2,3.0,1.0*3D
$GPGSV,3,1,11,24,84,127,,15,81,010,34,09,40,085,48,26,40,041,46*75
$GPGSV,3,2,11,21,39,180,,05,25,078,43,07,20,297,,29,17,042,*70
$GPGSV,3,3,11,20,03,283,,08,02,030,39,02,01,139,*4A
$GPRMC,013208.000,A,3414.9346,N,10859.9789,E,0.15,257.65,280313,,,A*6A
$GPGGA,013209.000,3414.9345,N,10859.9788,E,1,04,3.0,370.9,M,-28.3,M,,0000*79
$GPGSA,A,3,09,26,05,15,,,,,,,,,3.2,3.0,1.0*3D
$GPRMC,013209.000,A,3414.9345,N,10859.9788,E,0.16,258.62,280313,,,A*62
$GPGGA,013210.000,3414.9344,N,10859.9786,E,1,04,3.0,370.7,M,-28.3,M,,0000*70
$GPGSA,A,3,09,26,05,15,,,,,,,,,3.2,3.0,1.0*3D
$GPRMC,013210.000,A,3414.9344,N,10859.9786,E,0.15,255.48,280313,,,A*63
$GPGGA,013211.000,3414.9344,N,10859.9785,E,1,04,3.0,370.5,M,-28.3,M,,0000*70
$GPGSA,A,3,09,26,05,15,,,,,,,,,3.2,3.0,1.0*3D
$GPRMC,013211.000,A,3414.9344,N,10859.9785,E,0.16,264.17,280313,,,A*6A
$GPGGA,013212.000,3414.9343,N,10859.9783,E,1,04,3.0,370.2,M,-28.3,M,,0000*75
$GPGSA,A,3,09,26,05,15,,,,,,,,,3.2,3.0,1.0*3D
$GPRMC,013212.000,A,3414.9343,N,10859.9783,E,0.15,256.14,280313,,,A*69
$GPGGA,013213.000,3414.9342,N,10859.9781,E,1,04,3.0,370.0,M,-28.3,M,,0000*75
$GPGSA,A,3,09,26,05,15,,,,,,,,,3.2,3.0,1.0*3D
$GPGSV,3,1,11,24,84,128,,15,81,010,33,09,40,085,48,26,39,041,46*73
$GPGSV,3,2,11,21,39,180,,05,25,078,43,07,20,296,,29,17,042,*71
$GPGSV,3,3,11,20,03,283,,08,02,030,39,02,01,139,*4A
$GPRMC,013213.000,A,3414.9342,N,10859.9781,E,0.16,265.81,280313,,,A*64
$GPGGA,013214.000,3414.9341,N,10859.9780,E,1,04,3.0,369.8,M,-28.3,M,,0000*70
$GPGSA,A,3,09,26,05,15,,,,,,,,,3.2,3.0,1.0*3D
$GPRMC,013214.000,A,3414.9341,N,10859.9780,E,0.18,254.06,280313,,,A*62
$GPGGA,013215.000,3414.9340,N,10859.9778,E,1,04,3.0,369.5,M,-28.3,M,,0000*7A
$GPGSA,A,3,09,26,05,15,,,,,,,,,3.2,3.0,1.0*3D
$GPRMC,013215.000,A,3414.9340,N,10859.9778,E,0.18,260.80,280313,,,A*6C
$GPGGA,013216.000,3414.9340,N,10859.9776,E,1,04,3.0,369.3,M,-28.3,M,,0000*71
$GPGSA,A,3,09,26,05,15,,,,,,,,,3.2,3.0,1.0*3D
$GPRMC,013216.000,A,3414.9340,N,10859.9776,E,0.16,256.48,280313,,,A*6E
$GPGGA,013217.000,3414.9339,N,10859.9774,E,1,04,3.0,369.0,M,-28.3,M,,0000*7F
$GPGSA,A,3,09,26,05,15,,,,,,,,,3.2,3.0,1.0*3D
$GPRMC,013217.000,A,3414.9339,N,10859.9774,E,0.17,258.23,280313,,,A*61
$GPGGA,013218.000,3414.9338,N,10859.9773,E,1,04,3.0,368.8,M,-28.3,M,,0000*7F
$GPGSA,A,3,09,26,05,15,,,,,,,,,3.2,3.0,1.0*3D
$GPGSV,3,1,11,24,84,128,,15,81,010,33,09,40,085,47,26,39,041,47*7D
$GPGSV,3,2,11,21,39,180,,05,25,078,43,07,20,296,,29,17,042,*71
$GPGSV,3,3,11,20,03,283,,08,02,030,39,02,01,139,*4A
$GPRMC,013218.000,A,3414.9338,N,10859.9773,E,0.17,260.85,280313,,,A*6F
$GPGGA,013219.000,3414.9337,N,10859.9771,E,1,04,3.0,368.5,M,-28.3,M,,0000*7E
$GPGSA,A,3,09,26,05,15,,,,,,,,,3.2,3.0,1.0*3D
$GPRMC,013219.000,A,3414.9337,N,10859.9771,E,0.18,253.18,280313,,,A*68
$GPGGA,013220.000,3414.9336,N,10859.9769,E,1,04,3.0,368.3,M,-28.3,M,,0000*7A
$GPGSA,A,3,09,26,05,15,,,,,,,,,3.2,3.0,1.0*3D
$GPRMC,013220.000,A,3414.9336,N,10859.9769,E,0.19,262.92,280313,,,A*6B
$GPGGA,013221.000,3414.9335,N,10859.9767,E,1,04,3.0,368.0,M,-28.3,M,,0000*75
$GPGSA,A,3,09,26,05,15,,,,,,,,,3.2,3.0,1.0*3D
$GPRMC,013221.000,A,3414.9335,N,10859.9767,E,0.18,251.88,280313,,,A*6D
$GPGGA,013222.000,3414.9334,N,10859.9765,E,1,04,3.0,367.8,M,-28.3,M,,0000*72
$GPGSA,A,3,09,26,05,15,,,,,,,,,3.2,3.0,1.0*3D
$GPRMC,013222.000,A,3414.9334,N,10859.9765,E,0.20,257.49,280313,,,A*6D
$GPGGA,013223.000,3414.9333,N,10859.9763,E,1,04,3.0,367.6,M,-28.3,M,,0000*7C
$GPGSA,A,3,09,26,05,15,,,,,,,,,3.2,3.0,1.0*3D
$GPGSV,3,1,11,24,84,128,,15,81,010,33,09,40,085,47,26,39,041,46*7C
$GPGSV,3,2,11,21,39,180,,05,25,078,43,07,20,296,,29,17,042,*71
$GPGSV,3,3,11,20,03,283,,08,02,030,39,02,01,139,*4A
$GPRMC,013223.000,A,3414.9333,N,10859.9763,E,0.18,257.05,280313,,,A*6E
$GPGGA,013224.000,3414.9332,N,10859.9762,E,1,04,3.0,367.3,M,-28.3,M,,0000*7E
$GPGSA,A,3,09,26,05,15,,,,,,,,,3.2,3.0,1.0*3D
$GPRMC,013224.000,A,3414.9332,N,10859.9762,E,0.20,254.48,280313,,,A*68
$GPGGA,013225.000,3414.9331,N,10859.9760,E,1,04,3.0,367.1,M,-28.3,M,,0000*7C
$GPGSA,A,3,09,26,05,15,,,,,,,,,3.2014405.000,A,3414.9530,N,10900.0324,E,0.04,295
.89,280313,,,A*6A
$GPGGA,014406.000,3414.9529,N,10900.0322,E,1,04,3.2,431.9,M,-28.3,M,,0000*7B
$GPGSA,A,3,09,26,05,15,,,,,,,,,3.3,3.2,1.0*3E
$GPGSV,3,1,10,15,76,018,38,21,50,309,23,09,40,079,47,26,35,042,44*74
$GPGSV,3,2,10,24,34,157,,18,29,293,,29,26,218,,05,23,082,43*7C
$GPGSV,3,3,10,06,03,320,,22,01,281,28*7C
$GPRMC,014406.000,A,3414.9529,N,10900.0322,E,0.03,356.54,280313,,,A*6E
$GPGGA,014407.000,3414.9528,N,10900.0320,E,1,04,3.2,431.7,M,-28.3,M,,0000*77
$GPGSA,A,3,09,26,05,15,,,,,,,,,3.3,3.2,1.0*3E
$GPRMC,014407.000,A,3414.9528,N,10900.0320,E,0.05,15.39,280313,,,A*55
$GPGGA,014408.000,3414.9526,N,10900.0318,E,1,04,3.2,431.6,M,-28.3,M,,0000*7C
$GPGSA,A,3,09,26,05,15,,,,,,,,,3.3,3.2,1.0*3E
$GPRMC,014408.000,A,3414.9526,N,10900.0318,E,0.04,29.03,280313,,,A*58
$GPGGA,014409.000,3414.9525,N,10900.0316,E,1,04,3.2,431.5,M,-28.3,M,,0000*73
$GPGSA,A,3,09,26,05,15,,,,,,,,,3.3,3.2,1.0*3E
$GPRMC,014409.000,A,3414.9525,N,10900.0316,E,0.05,30.91,280313,,,A*56
$GPGGA,014410.000,3414.9524,N,10900.0314,E,1,04,3.2,431.3,M,-28.3,M,,0000*7E
$GPGSA,A,3,09,26,05,15,,,,,,,,,3.3,3.2,1.0*3E
$GPRMC,014410.000,A,3414.9524,N,10900.0314,E,0.05,23.83,280313,,,A*5C
$GPGGA,014411.000,3414.9523,N,10900.0312,E,1,04,3.2,431.2,M,-28.3,M,,0000*7F
$GPGSA,A,3,09,26,05,15,,,,,,,,,3.3,3.2,1.0*3E
$GPGSV,3,1,10,15,76,018,39,21,50,309,13,09,40,079,47,26,35,042,44*76
$GPGSV,3,2,10,24,34,157,,18,29,293,,29,26,218,,05,23,082,43*7C
$GPGSV,3,3,10,06,03,320,,22,01,281,29*7D
$GPRMC,014411.000,A,3414.9523,N,10900.0312,E,0.05,5.31,280313,,,A*61
$GPGGA,014412.000,3414.9522,N,10900.0311,E,1,04,3.2,431.1,M,-28.3,M,,0000*7D
$GPGSA,A,3,09,26,05,15,,,,,,,,,3.3,3.2,1.0*3E
$GPRMC,014412.000,A,3414.9522,N,10900.0311,E,0.06,23.98,280313,,,A*54
